{
  "libraries": [
    {
      "long": -76.97932916027321,
      "lat": 38.89786061283508,
      "OBJECTID": 1,
      "GIS_ID": "Libr_32",
      "name": "Rosedale Neighborhood Library",
      "ADDRESS": "1701 Gales Street NE",
      "PHONE": "202-671-3121\n",
      "STATUS": "Open",
      "WEB_URL": "http://www.dclibrary.org/rosedale",
      "ADDRESS_ID": 307101
    },
    {
      "long": -77.0660096107547,
      "lat": 38.913442017065805,
      "OBJECTID": 2,
      "GIS_ID": "Libr_25",
      "name": "Georgetown Neighborhood Library",
      "ADDRESS": "3260 R Street NW",
      "PHONE": "(202) 727-0232",
      "STATUS": "Open",
      "WEB_URL": "http://www.dclibrary.org/georgetown",
      "ADDRESS_ID": 295142
    },
    {
      "long": -77.02613971967232,
      "lat": 38.942207685179035,
      "OBJECTID": 3,
      "GIS_ID": "Libr_26",
      "name": "Petworth Neighborhood Library",
      "ADDRESS": "4200 Kansas Avenue NW",
      "PHONE": "(202) 243-1188",
      "STATUS": "Open",
      "WEB_URL": "http://www.dclibrary.org/petworth",
      "ADDRESS_ID": 295146
    },
    {
      "long": -77.0371477101131,
      "lat": 38.93047455660824,
      "OBJECTID": 4,
      "GIS_ID": "Libr_31",
      "name": "Mt. Pleasant Neighborhood Library",
      "ADDRESS": "3160 16th Street NW",
      "PHONE": "202-671-3121\n202-671-3121\n(202) 671-3121",
      "STATUS": "Open",
      "WEB_URL": "http://www.dclibrary.org/mtpleasant",
      "ADDRESS_ID": 295138
    },
    {
      "long": -77.02221477293924,
      "lat": 38.91246547208589,
      "OBJECTID": 5,
      "GIS_ID": "Libr_28",
      "name": "Watha T. Daniel/Shaw Neighborhood Library",
      "ADDRESS": "1630 7th Street NW",
      "PHONE": "(202) 727-1288",
      "STATUS": "Open",
      "WEB_URL": "http://www.dclibrary.org/watha",
      "ADDRESS_ID": 308201
    },
    {
      "long": -76.93254383419531,
      "lat": 38.90847164972693,
      "OBJECTID": 6,
      "GIS_ID": "Libr_29",
      "name": "Deanwood Neighborhood Library",
      "ADDRESS": "1350 49th Street NE",
      "PHONE": "(202) 698-1175",
      "STATUS": "Open",
      "WEB_URL": "http://www.dclibrary.org/deanwood",
      "ADDRESS_ID": 307551
    },
    {
      "long": -76.94777332041986,
      "lat": 38.894188678043136,
      "OBJECTID": 7,
      "GIS_ID": "Libr_2",
      "name": "Dorothy I Height/Benning Neighborhood Library",
      "ADDRESS": "3935 Benning Road NE",
      "PHONE": "(202) 281-2583",
      "STATUS": "Open",
      "WEB_URL": "http://www.dclibrary.org/dorothy",
      "ADDRESS_ID": 295144
    },
    {
      "long": -76.92957946798036,
      "lat": 38.88896228629643,
      "OBJECTID": 8,
      "GIS_ID": "Libr_3",
      "name": "Capitol View Neighborhood Library",
      "ADDRESS": "5001 Central Avenue SE",
      "PHONE": "(202) 645-0755",
      "STATUS": "Open",
      "WEB_URL": "http://www.dclibrary.org/capitolview",
      "ADDRESS_ID": 15509
    },
    {
      "long": -77.07545902131496,
      "lat": 38.96557695120655,
      "OBJECTID": 9,
      "GIS_ID": "Libr_4",
      "name": "Chevy Chase Neighborhood Library",
      "ADDRESS": "5625 Connecticut Avenue NW",
      "PHONE": "(202) 282-0021",
      "STATUS": "Open",
      "WEB_URL": "http://www.dclibrary.org/chevychase",
      "ADDRESS_ID": 263960
    },
    {
      "long": -77.05784488821186,
      "lat": 38.93382326148392,
      "OBJECTID": 10,
      "GIS_ID": "Libr_5",
      "name": "Cleveland Park Neighborhood Library",
      "ADDRESS": "3310 Connecticut Avenue NW",
      "PHONE": "(202) 282-3080",
      "STATUS": "Open",
      "WEB_URL": "http://www.dclibrary.org/clevelandpark",
      "ADDRESS_ID": 221190
    },
    {
      "long": -76.95398086636109,
      "lat": 38.86481878798127,
      "OBJECTID": 11,
      "GIS_ID": "Libr_7",
      "name": "Francis A. Gregory Neighborhood Library",
      "ADDRESS": "3660 Alabama Avenue SE",
      "PHONE": "(202) 698-6373",
      "STATUS": "Open",
      "WEB_URL": "http://www.dclibrary.org/francis",
      "ADDRESS_ID": 290019
    },
    {
      "long": -76.9995865989782,
      "lat": 38.95513559548458,
      "OBJECTID": 12,
      "GIS_ID": "Libr_8",
      "name": "Lamond-Riggs Neighborhood Library",
      "ADDRESS": "5401 South Dakota Avenue NE",
      "PHONE": "(202) 541-6255",
      "STATUS": "Open",
      "WEB_URL": "http://www.dclibrary.org/lamond\n",
      "ADDRESS_ID": 288645
    },
    {
      "long": -77.0247685512535,
      "lat": 38.89869911642607,
      "OBJECTID": 13,
      "GIS_ID": "Libr_9",
      "name": "Martin Luther King Jr. Memorial Library",
      "ADDRESS": "901 G Street NW",
      "PHONE": "(202) 727-0321",
      "STATUS": "Open",
      "WEB_URL": "http://www.dclibrary.org/mlk",
      "ADDRESS_ID": 239815
    },
    {
      "long": -76.99636126680493,
      "lat": 38.89441433442273,
      "OBJECTID": 14,
      "GIS_ID": "Libr_10",
      "name": "Northeast Neighborhood Library",
      "ADDRESS": "330 7th Street NE",
      "PHONE": "(202) 698-3320",
      "STATUS": "Open",
      "WEB_URL": "http://www.dclibrary.org/northeast",
      "ADDRESS_ID": 37106
    },
    {
      "long": -77.07988906448986,
      "lat": 38.947615846003856,
      "OBJECTID": 15,
      "GIS_ID": "Libr_11",
      "name": "Tenley-Friendship Neighborhood Library",
      "ADDRESS": "4450 Wisconsin Avenue NW",
      "PHONE": "(202) 727-1488",
      "STATUS": "Open",
      "WEB_URL": "http://www.dclibrary.org/tenley",
      "ADDRESS_ID": 284921
    },
    {
      "long": -77.09717695867846,
      "lat": 38.918389252462426,
      "OBJECTID": 16,
      "GIS_ID": "Libr_12",
      "name": "Palisades Neighborhood Library",
      "ADDRESS": "4901 V Street NW",
      "PHONE": "(202) 282-3139",
      "STATUS": "Open",
      "WEB_URL": "http://www.dclibrary.org/palisades",
      "ADDRESS_ID": 224474
    },
    {
      "long": -76.99651773463215,
      "lat": 38.884091909699784,
      "OBJECTID": 17,
      "GIS_ID": "Libr_14",
      "name": "Southeast Neighborhood Library",
      "ADDRESS": "403 7th Street SE",
      "PHONE": "(202) 698-3377",
      "STATUS": "Open",
      "WEB_URL": "http://www.dclibrary.org/southeast",
      "ADDRESS_ID": 280068
    },
    {
      "long": -77.01583406277746,
      "lat": 38.878705402197774,
      "OBJECTID": 18,
      "GIS_ID": "Libr_15",
      "name": "Southwest Neighborhood Library",
      "ADDRESS": "900 Wesley Place SW",
      "PHONE": "(202) 724-4752",
      "STATUS": "Open",
      "WEB_URL": "http://www.dclibrary.org/southwest",
      "ADDRESS_ID": 295165
    },
    {
      "long": -77.02703773991006,
      "lat": 38.980288354069415,
      "OBJECTID": 19,
      "GIS_ID": "Libr_16",
      "name": "Juanita E. Thornton-Shepherd Park Library",
      "ADDRESS": "7420 Georgia Avenue NW",
      "PHONE": "(202) 541-6100",
      "STATUS": "Open",
      "WEB_URL": "http://www.dclibrary.org/juanita",
      "ADDRESS_ID": 253522
    },
    {
      "long": -77.02015915553746,
      "lat": 38.974444213198424,
      "OBJECTID": 20,
      "GIS_ID": "Libr_17",
      "name": "Takoma Park Neighborhood Library",
      "ADDRESS": "416 Cedar Street NW",
      "PHONE": "(202) 576-7252",
      "STATUS": "Open",
      "WEB_URL": "http://www.dclibrary.org/takomapark",
      "ADDRESS_ID": 251267
    },
    {
      "long": -76.98125359233046,
      "lat": 38.846194308105964,
      "OBJECTID": 21,
      "GIS_ID": "Libr_19",
      "name": "Parklands-Turner Neighborhood Library",
      "ADDRESS": "1547 Alabama Avenue SE",
      "PHONE": "(202) 645-4532",
      "STATUS": "Open",
      "WEB_URL": "http://www.dclibrary.org/parklands",
      "ADDRESS_ID": 304504
    },
    {
      "long": -77.00935672635819,
      "lat": 38.831338356640934,
      "OBJECTID": 22,
      "GIS_ID": "Libr_20",
      "name": "William O. Lockridge/Bellevue Neighborhood Library",
      "ADDRESS": "115 Atlantic Street SW",
      "PHONE": "(202) 243-1184",
      "STATUS": "Open",
      "WEB_URL": "http://www.dclibrary.org/bellevue",
      "ADDRESS_ID": 302935
    },
    {
      "long": -77.05110020129936,
      "lat": 38.90402693754516,
      "OBJECTID": 23,
      "GIS_ID": "Libr_21",
      "name": "West End Neighborhood Library",
      "ADDRESS": "1101 24th Street NW",
      "PHONE": "(202) 724-8707",
      "STATUS": "Open",
      "WEB_URL": "http://www.dclibrary.org/westend",
      "ADDRESS_ID": 218248
    },
    {
      "long": -76.97862792843307,
      "lat": 38.92744819069738,
      "OBJECTID": 24,
      "GIS_ID": "Libr_22",
      "name": "Woodridge Neighborhood Library",
      "ADDRESS": "1801 Hamlin Street NE",
      "PHONE": "(202) 541-6226",
      "STATUS": "Open",
      "WEB_URL": "http://www.dclibrary.org/woodridge",
      "ADDRESS_ID": 286483
    },
    {
      "long": -77.01321053857765,
      "lat": 38.90403646578124,
      "OBJECTID": 25,
      "GIS_ID": "Libr_23",
      "name": "Northwest One Neighborhood Library",
      "ADDRESS": "155 L Street NW",
      "PHONE": "(202) 939-5946",
      "STATUS": "Open",
      "WEB_URL": "http://www.dclibrary.org/northwest",
      "ADDRESS_ID": 307736
    },
    {
      "long": -76.97848771438763,
      "lat": 38.86590418044187,
      "OBJECTID": 26,
      "GIS_ID": "Libr_24",
      "name": "Anacostia Neighborhood Library",
      "ADDRESS": "1800 Good Hope Road SE",
      "PHONE": "(202) 715-7707",
      "STATUS": "Open",
      "WEB_URL": "http://www.dclibrary.org/anacostia",
      "ADDRESS_ID": 53560
    }
  ]
}